{"districts": [{"name": "Central_And_Western", "center": {"type": "Feature", "properties": {"name": "Central_And_Western", "cases": 2}, "geometry": {"type": "Point", "coordinates": [114.139035, 22.274839999999998]}}}, {"name": "Wan_Chai", "center": {"type": "Feature", "properties": {"name": "Wan_Chai", "cases": 0}, "geometry": {"type": "Point", "coordinates": [114.18516500000001, 22.273955]}}}, {"name": "Eastern", "center": {"type": "Feature", "properties": {"name": "Eastern", "cases": 6}, "geometry": {"type": "Point", "coordinates": [114.22396499999999, 22.273004999999998]}}}, {"name": "Southern", "center": {"type": "Feature", "properties": {"name": "Southern", "cases": 0}, "geometry": {"type": "Point", "coordinates": [114.20959, 22.23412]}}}, {"name": "Yau_Tsim_Mong", "center": {"type": "Feature", "properties": {"name": "Yau_Tsim_Mong", "cases": 5}, "geometry": {"type": "Point", "coordinates": [114.168185, 22.307415]}}}, {"name": "Sham_Shui_Po", "center": {"type": "Feature", "properties": {"name": "Sham_Shui_Po", "cases": 1}, "geometry": {"type": "Point", "coordinates": [114.15359000000001, 22.331184999999998]}}}, {"name": "Kowloon_City", "center": {"type": "Feature", "properties": {"name": "Kowloon_City", "cases": 0}, "geometry": {"type": "Point", "coordinates": [114.19606, 22.321725]}}}, {"name": "Wong_Tai_Sin", "center": {"type": "Feature", "properties": {"name": "Wong_Tai_Sin", "cases": 0}, "geometry": {"type": "Point", "coordinates": [114.201745, 22.34442]}}}, {"name": "Kwun_Tong", "center": {"type": "Feature", "properties": {"name": "Kwun_Tong", "cases": 8}, "geometry": {"type": "Point", "coordinates": [114.223645, 22.308625]}}}, {"name": "Tsuen_Wan", "center": {"type": "Feature", "properties": {"name": "Tsuen_Wan", "cases": 4}, "geometry": {"type": "Point", "coordinates": [114.081885, 22.36504]}}}, {"name": "Tuen_Mun", "center": {"type": "Feature", "properties": {"name": "Tuen_Mun", "cases": 11}, "geometry": {"type": "Point", "coordinates": [113.966035, 22.378875]}}}, {"name": "Yuen_Long", "center": {"type": "Feature", "properties": {"name": "Yuen_Long", "cases": 3}, "geometry": {"type": "Point", "coordinates": [114.001065, 22.457195]}}}, {"name": "North", "center": {"type": "Feature", "properties": {"name": "North", "cases": 0}, "geometry": {"type": "Point", "coordinates": [114.207265, 22.517004999999997]}}}, {"name": "Tai_Po", "center": {"type": "Feature", "properties": {"name": "Tai_Po", "cases": 0}, "geometry": {"type": "Point", "coordinates": [114.28399999999999, 22.480865]}}}, {"name": "Sai_Kung", "center": {"type": "Feature", "properties": {"name": "Sai_Kung", "cases": 0}, "geometry": {"type": "Point", "coordinates": [114.361795, 22.307344999999998]}}}, {"name": "Sha_Tin", "center": {"type": "Feature", "properties": {"name": "Sha_Tin", "cases": 0}, "geometry": {"type": "Point", "coordinates": [114.19787500000001, 22.391579999999998]}}}, {"name": "Kwai_Tsing", "center": {"type": "Feature", "properties": {"name": "Kwai_Tsing", "cases": 0}, "geometry": {"type": "Point", "coordinates": [114.111195, 22.341]}}}, {"name": "Islands", "center": {"type": "Feature", "properties": {"name": "Islands", "cases": 0}, "geometry": {"type": "Point", "coordinates": [114.06324000000001, 22.230674999999998]}}}], "buildings": [{"district": "Eastern", "name": "Siu Sai Wan Plaza", "name_zh": "\u5c0f\u897f\u7063\u5ee3\u5834", "residential": false, "kind": "non-residential", "date": "22/03/2021", "cases": ["11394", " 11419"], "address": "10\u865f Siu Sai Wan Rd, Siu Sai Wan, Hong Kong", "lat": 22.262778, "lng": 114.2489902, "confidence": 9}, {"district": "Kwun Tong", "name": "Domain Food Republic", "name_zh": "\u5927\u672c\u578b \u5927\u98df\u4ee3", "residential": false, "kind": "non-residential", "date": "29/03/2021", "cases": ["11398", " 11492", " 11493"], "address": "Hong Kong, Yau Tong, Yau Tong \u9ad8\u8d85\u905338\u865f\u5927\u672c\u578b3\u6a13308-312\u865f\u92ea", "lat": 22.2966559, "lng": 114.2385472, "confidence": 9}, {"district": "Eastern", "name": "Siu Sai Wan Plaza Dragon Delight", "name_zh": "\u5c0f\u897f\u7063\u5546\u5834 \u9f8d\u6085\u6d77\u9bae\u9152\u5bb6", "residential": false, "kind": "non-residential", "date": "30/03/2021", "cases": ["11477", " 11490"], "address": "Hong Kong, Siu Sai Wan, 3\u6a13303\u865f\u8216\u67f4\u7063", "lat": 22.262772, "lng": 114.248763, "confidence": 9}, {"district": "Central & Western", "name": "Melbourne Plaza Caf  de Coral", "name_zh": "\u842c\u90a6\u884c \u5927\u5bb6\u6a02", "residential": false, "kind": "restaurant", "date": "01/04/2021", "cases": ["11538"], "address": "Hong Kong, Central, Queen's Road Central, 33\u865f\u842c\u90a6\u884cG1-B\u90e8\u4efd\u53caG2\u865f\u8216", "lat": 22.2823489, "lng": 114.1566187, "confidence": 9}, {"district": "Central & Western", "name": "Wheelock House", "name_zh": "\u6703\u5fb7\u8c50\u5927\u5ec8", "residential": false, "kind": "non-residential", "date": "01/04/2021", "cases": ["11538"], "address": "Hong Kong, Central, Pedder St, 20\u865f\u6703\u5fb7\u8c50\u5927\u5ec8", "lat": 22.282005, "lng": 114.1573585, "confidence": 9}, {"district": "Tuen Mun", "name": "Tung Wah Group of Hospitals Tang Shiu Kin Primary School", "name_zh": "\u6771\u83ef\u4e09\u9662\u9127\u8087\u5805\u5c0f\u5b78", "residential": false, "kind": "hospital", "date": "01/04/2021", "cases": ["11568"], "address": "\u5b89\u5b9a \u90a8 \u7b2c \u4e8c \u6821\u820d, Tuen Mun, Hong Kong", "lat": 22.388222, "lng": 113.9767864, "confidence": 9}, {"district": "Kwun Tong", "name": "Lei Yue Mun Plaza", "name_zh": "\u9bc9\u9b5a\u9580\u5ee3\u5834", "residential": false, "kind": "non-residential", "date": "02/04/2021", "cases": ["11512"], "address": "Lei Yue Mun Rd, Hong Kong", "lat": 22.3038716, "lng": 114.2359332, "confidence": 7}, {"district": "Tuen Mun", "name": "Shan King Shopping Centre", "name_zh": "\u5c71\u666f\u5546\u5834", "residential": false, "kind": "mall", "date": "02/04/2021", "cases": ["11538"], "address": "1 Ming Kum Rd, Tuen Mun, Hong Kong", "lat": 22.3966317, "lng": 113.9665641, "confidence": 9}, {"district": "Yuen Long", "name": "G/F Fung Hing Lau", "name_zh": "\u8c50\u8208\u6a13\u5730\u4e0b", "residential": false, "kind": "non-residential", "date": "02/04/2021", "cases": ["11556"], "address": "Fung Hing Building, 33-35 Yuen Long Hong Lok Rd, Yuen Long, Hong Kong", "lat": 22.4431489, "lng": 114.0274763, "confidence": 9}, {"district": "Tsuen Wan", "name": "G/F Lido Garden", "name_zh": "\u9e97\u90fd\u82b1\u5712\u5730\u4e0b", "residential": false, "kind": "non-residential", "date": "02/04/2021", "cases": ["11604"], "address": "41-63 Castle Peak Rd (Sham Tseng), Sham Tseng, Hong Kong", "lat": 22.366227, "lng": 114.058911, "confidence": 9}, {"district": "Tuen Mun", "name": "H.A.N.D.S", "name_zh": "\u611b\u5b9a\u5546\u5834 \u5229\u7fa4\u6d77\u9bae\u98ef\u5e97", "residential": false, "kind": "non-residential", "date": "02/04/2021", "cases": ["11611"], "address": "2A Tuen Mun Heung Sze Wui Rd, Tuen Mun, Hong Kong", "lat": 22.3878435, "lng": 113.9752328, "confidence": 9}, {"district": "Yau Tsim Mong", "name": "Ocean Terminal", "name_zh": "\u6d77\u904b\u5927\u5ec8", "residential": false, "kind": "non-residential", "date": "03/04/2021", "cases": ["11001", " 11207", " 11538"], "address": "Harbour City, Canton Rd, Tsim Sha Tsui, Hong Kong", "lat": 22.2950249, "lng": 114.1668799, "confidence": 9}, {"district": "Kwun Tong", "name": "Lei Yue Mun Market", "name_zh": "\u9bc9\u9b5a\u9580\u5e02\u5834", "residential": false, "kind": "non-residential", "date": "03/04/2021", "cases": ["11492", " 11493", " 11512"], "address": "Hong Kong, Yau Tong, Lei Yue Mun Rd, 80\u865f, Lei Yue Mun Plaza, \u865f", "lat": 22.2959054, "lng": 114.2395674, "confidence": 9}, {"district": "Kwun Tong", "name": "On Kay Commercial Centre", "name_zh": "\u5b89\u57fa\u5546\u5834", "residential": false, "kind": "non-residential", "date": "03/04/2021", "cases": ["11530"], "address": "On Kay Court Kay Yue House, Chun Wah Rd, Ngau Tau Kok, Hong Kong", "lat": 22.322492, "lng": 114.217242, "confidence": 9}, {"district": "Yau Tsim Mong", "name": "Sino Centre", "name_zh": "\u4fe1\u548c\u4e2d\u5fc3", "residential": false, "kind": "non-residential", "date": "03/04/2021", "cases": ["11538"], "address": "Sino Centre, 582-592 Nathan Rd, Mong Kok, Hong Kong", "lat": 22.3160575, "lng": 114.1703633, "confidence": 9}, {"district": "Tuen Mun", "name": "Tuen Mun Parklane Square Golden Star Seafood Restaurant", "name_zh": "\u5c6f\u9580\u6822\u9e97\u5ee3\u5834 \u660e\u661f\u91d1\u95a3\u6d77\u9bae\u9152\u5bb6", "residential": false, "kind": "restaurant", "date": "03/04/2021", "cases": ["11535"], "address": "Hong Kong, \u5c6f\u9580\u5c6f\u559c\u8def2\u865f\u5c6f\u9580\u6822\u9e97\u5ee3\u58343 \u6a13", "lat": 22.390985, "lng": 113.97739, "confidence": 9}, {"district": "Tuen Mun", "name": "Tuen Mun Town Plaza Phase 2", "name_zh": "\u5c6f\u9580\u5e02\u5ee3\u58342\u671f", "residential": false, "kind": "non-residential", "date": "03/04/2021", "cases": ["11535"], "address": "3 Tuen Lung St, Tuen Mun, Hong Kong", "lat": 22.3939977, "lng": 113.9761789, "confidence": 9}, {"district": "Yuen Long", "name": "7 Kau Chin Street", "name_zh": "\u7403\u524d\u88577\u865f \u751f\u5229\u8336\u9910\u5ef3", "residential": false, "kind": "non-residential", "date": "03/04/2021", "cases": ["11556"], "address": "7 Kau Yuk Rd, Yuen Long, Hong Kong", "lat": 22.4429179, "lng": 114.0271785, "confidence": 9}, {"district": "Yuen Long", "name": "Yuen Long Plaza", "name_zh": "\u5143\u6717\u5ee3\u5834", "residential": false, "kind": "non-residential", "date": "03/04/2021", "cases": ["11556"], "address": "251 Castle Peak Road (Yuen Long), Yuen Long, Hong Kong", "lat": 22.4448907, "lng": 114.0239001, "confidence": 9}, {"district": "Tuen Mun", "name": "Trend Plaza", "name_zh": "\u5c6f\u9580\u6642\u4ee3\u5ee3\u5834", "residential": false, "kind": "non-residential", "date": "03/04/2021", "cases": ["11604"], "address": "Trend Plaza North Wing, Tuen Lung St, Tuen Mun, Hong Kong", "lat": 22.3931642, "lng": 113.9757613, "confidence": 9}, {"district": "Tuen Mun", "name": "Trend Plaza Pastaholic", "name_zh": "\u5c6f\u9580\u6642\u4ee3\u5ee3\u5834 \u610f\u7c89\u72c2\u71b1", "residential": false, "kind": "non-residential", "date": "03/04/2021", "cases": ["11604"], "address": "Hong Kong, Tuen Mun, Trend Plaza North Wing, 2\u6a1346\u865f\u8216", "lat": 22.3929989, "lng": 113.9757366, "confidence": 9}, {"district": "Tuen Mun", "name": "Tsang Tsui Columbarium", "name_zh": "\u66fe\u5480\u9748\u7070\u5b89\u7f6e\u6240", "residential": false, "kind": "non-residential", "date": "03/04/2021", "cases": ["11602", " 11604"], "address": "Kei Lun Wai, Hong Kong", "lat": 22.411604, "lng": 113.975792, "confidence": 7}, {"district": "Tuen Mun", "name": "Tuen Mun Town Plaza Phase 1", "name_zh": "\u5c6f\u9580\u5e02\u5ee3\u58341\u671f", "residential": false, "kind": "non-residential", "date": "03/04/2021", "cases": ["11604"], "address": "Hong Kong, Tuen Mun, \u5c6f\u767c\u8def", "lat": 22.393264, "lng": 113.977486, "confidence": 9}, {"district": "Tuen Mun", "name": "H.A.N.D.S Classic Show Room", "name_zh": "\u611b\u5b9a\u5546\u5834 \u7d93\u5178\u5eda\u623f", "residential": false, "kind": "non-residential", "date": "04/04/2021", "cases": ["11535"], "address": "2A Tuen Mun Heung Sze Wui Rd, Tuen Mun, Hong Kong", "lat": 22.3878435, "lng": 113.9752328, "confidence": 9}, {"district": "Tuen Mun", "name": "K-Point", "name_zh": "\u9326\u8588\u574a", "residential": false, "kind": "non-residential", "date": "04/04/2021", "cases": ["11538"], "address": "1 Tuen Lung St, Tuen Mun, Hong Kong", "lat": 22.39392, "lng": 113.9754649, "confidence": 9}, {"district": "Tuen Mun", "name": "H.A.N.D.S", "name_zh": "\u611b\u5b9a\u5546\u5834", "residential": false, "kind": "non-residential", "date": "05/04/2021", "cases": ["11535", " 11611"], "address": "2A Tuen Mun Heung Sze Wui Rd, Tuen Mun, Hong Kong", "lat": 22.3878435, "lng": 113.9752328, "confidence": 9}, {"district": "Tuen Mun", "name": "YO Mart", "name_zh": "\u53cb\u611b\u8857\u5e02", "residential": false, "kind": "non-residential", "date": "05/04/2021", "cases": ["11535"], "address": "Tuen Mun District, Hong Kong", "lat": 22.3907654, "lng": 113.9725161, "confidence": 2}, {"district": "Tuen Mun", "name": "H.A.N.D.S Caf  de Coral", "name_zh": "\u611b\u5b9a\u5546\u5834 \u5927\u5bb6\u6a02", "residential": false, "kind": "restaurant", "date": "06/04/2021", "cases": ["11576", " 11611"], "address": "2A Tuen Mun Heung Sze Wui Rd, Tuen Mun, Hong Kong", "lat": 22.3870155, "lng": 113.9755347, "confidence": 9}, {"district": "Tsuen Wan", "name": "Yeung Uk Road Municipal Services Building", "name_zh": "\u694a\u5c4b\u9053\u5e02\u653f\u5927\u5ec8", "residential": false, "kind": "non-residential", "date": "06/04/2021", "cases": ["11604"], "address": "45 Yeung Uk Rd, Tsuen Wan, Hong Kong", "lat": 22.36906, "lng": 114.114597, "confidence": 9}, {"district": "Yuen Long", "name": "G/F Tai Hing Building", "name_zh": "\u5927\u8208\u5927\u5ec8\u5730\u4e0b", "residential": false, "kind": "non-residential", "date": "07/04/2021", "cases": ["11556"], "address": "10 Sai Ching St, Yuen Long, Hong Kong", "lat": 22.4419616, "lng": 114.0277058, "confidence": 9}, {"district": "Tuen Mun", "name": "G/F Chi Lok Fa Yuen", "name_zh": "\u7f6e\u6a02\u82b1\u5712\u5730\u4e0b", "residential": false, "kind": "non-residential", "date": "07/04/2021", "cases": ["11576"], "address": "Hong Kong, Tuen Mun, Tsing Hoi Circuit, 18\u865f\u7f6e\u6a02\u82b1\u571210\u865f\u5730\u4e0b", "lat": 22.387741, "lng": 113.979799, "confidence": 9}, {"district": "Tuen Mun", "name": "Siu On Court Ting Kay House", "name_zh": "\u5146\u5b89\u82d1\u5b9a\u57fa\u95a3", "residential": false, "kind": "non-residential", "date": "08/04/2021", "cases": ["11568"], "address": "Siu On Court Ting Kay House, Tuen Hing Rd, Tuen Mun, Hong Kong", "lat": 22.3890621, "lng": 113.9774137, "confidence": 9}, {"district": "Sham Shui Po", "name": "Heya Star Shopping Centre Best BBQ", "name_zh": "\u559c\u97fb\u5546\u5834 \u6700\u6382\u71d2\u5473", "residential": false, "kind": "mall", "date": "08/04/2021", "cases": ["11602"], "address": "368 Castle Peak Rd, Cheung Sha Wan, Hong Kong", "lat": 22.339177, "lng": 114.1557275, "confidence": 9}, {"district": "Tuen Mun", "name": "Yan Oi Market", "name_zh": "\u4ec1\u611b\u8857\u5e02", "residential": false, "kind": "non-residential", "date": "09/04/2021", "cases": ["11576", " 11579"], "address": "1 Tsing Wui St, Tuen Mun, Hong Kong", "lat": 22.3878836, "lng": 113.9800723, "confidence": 9}, {"district": "Tuen Mun", "name": "Shun Tak Fraternal Association Tam Pak Yu College", "name_zh": "\u9806\u5fb7\u806f\u8abc\u7e3d\u6703\u8b5a\u4f2f\u7fbd\u4e2d\u5b78", "residential": false, "kind": "non-residential", "date": "09/04/2021", "cases": ["11588"], "address": "9 Yau Oi Rd, Tuen Mun, Hong Kong", "lat": 22.3875946, "lng": 113.9724932, "confidence": 9}, {"district": "Tuen Mun", "name": "Tuen Mun Parklane Square", "name_zh": "\u5c6f\u9580\u6822\u9e97\u5ee3\u5834", "residential": false, "kind": "non-residential", "date": "09/04/2021", "cases": ["11588"], "address": "Tuen Mun Parklane Square, 2 Tuen Hi Rd, Tuen Mun, Hong Kong", "lat": 22.390968, "lng": 113.9772455, "confidence": 9}, {"district": "Sham Shui Po", "name": "Clifford Centre", "name_zh": "\u9999\u6e2f\u4e2d\u5fc3", "residential": false, "kind": "non-residential", "date": "09/04/2021", "cases": ["11602"], "address": "Clifford Centre, 778-784 Cheung Sha Wan Rd, Cheung Sha Wan, Hong Kong", "lat": 22.3384194, "lng": 114.1502058, "confidence": 9}, {"district": "Sham Shui Po", "name": "Elite Industrial Centre Red Rice", "name_zh": "\u5104\u5229\u5de5\u696d\u4e2d\u5fc3 \u7c73\u98ef\u4e3b\u984c\u9910\u5ef3", "residential": false, "kind": "non-residential", "date": "09/04/2021", "cases": ["11602"], "address": "883 Cheung Sha Wan Rd, Cheung Sha Wan, Hong Kong", "lat": 22.3366781, "lng": 114.1475817, "confidence": 9}, {"district": "Central & Western", "name": "Prosperity Tower", "name_zh": "\u8c50\u76db\u5275\u5efa\u5927\u5ec8", "residential": false, "kind": "non-residential", "date": "09/04/2021", "cases": ["11603"], "address": "39\u865f Queen's Road Central, Central, Hong Kong", "lat": 22.2825424, "lng": 114.1562254, "confidence": 9}, {"district": "Eastern", "name": "Island Resort Mall", "name_zh": "\u85cd\u7063\u5ee3\u5834", "residential": false, "kind": "mall", "date": "09/04/2021", "cases": ["11617", " 11619"], "address": "28 Siu Sai Wan Rd, Siu Sai Wan, Hong Kong", "lat": 22.266226, "lng": 114.2508984, "confidence": 9}, {"district": "Eastern", "name": "Sui Keung House Siu Sai Wan Estate", "name_zh": "\u5c0f\u897f\u7063\u90a8\u745e\u5f37\u6a13", "residential": false, "kind": "non-residential", "date": "09/04/2021", "cases": ["11617", " 11619"], "address": "Siu Sai Wan Estate Block D Sui Keung House, 10 Siu Sai Wan Rd, Siu Sai Wan, Hong Kong", "lat": 22.262527, "lng": 114.2477335, "confidence": 9}, {"district": "Tsuen Wan", "name": "Fortune Mansion", "name_zh": "\u5bcc\u69ae\u5927\u5ec8", "residential": false, "kind": "non-residential", "date": "10/04/2021", "cases": ["11603", " 11604"], "address": "Fortune Mansion, 3 Cheong Tai St, Tsuen Wan, Hong Kong", "lat": 22.3725446, "lng": 114.1157408, "confidence": 9}, {"district": "Tsuen Wan", "name": "Waldorf Centre", "name_zh": "\u83ef\u90fd\u4e2d\u5fc3", "residential": false, "kind": "non-residential", "date": "10/04/2021", "cases": ["11602"], "address": "Waldorf Centre, 170-184 Sai Lau Kok Rd, Tsuen Wan, Hong Kong", "lat": 22.3716681, "lng": 114.1196426, "confidence": 9}, {"district": "Yau Tsim Mong", "name": "Argyle Centre Phase 1", "name_zh": "\u65fa\u89d2\u4e2d\u5fc31\u5ea7", "residential": false, "kind": "non-residential", "date": "10/04/2021", "cases": ["11619"], "address": "Argyle Centre Phase I, 688 Nathan Rd, Mong Kok, Hong Kong", "lat": 22.3198395, "lng": 114.1697195, "confidence": 9}, {"district": "Eastern", "name": "G/F Parkvale", "name_zh": "\u6822\u8559\u82d1\u5730\u4e0b", "residential": false, "kind": "non-residential", "date": "11/04/2021", "cases": ["11617"], "address": "\u9999\u6e2f\u9c02\u9b5a\u6d8c\u57fa\u5229\u8def8\u865f\u6822\u8559\u82d1 / PARK VALE, 8 Greig Road, Quarry Bay, Hong Kong", "lat": 22.2840558, "lng": 114.2132573, "confidence": 9}, {"district": "Yuen Long", "name": "G/F Lok Shing Building", "name_zh": "\u6a02\u6210\u5927\u5ec8\u5730\u4e0b", "residential": false, "kind": "non-residential", "date": "12/04/2021", "cases": ["11617", " 11619"], "address": "9 Sai Ching St, Yuen Long, Hong Kong", "lat": 22.4423082, "lng": 114.0277181, "confidence": 9}, {"district": "Kwun Tong", "name": "Skyline Tower", "name_zh": "\u5b8f\u5929\u5ee3\u5834", "residential": false, "kind": "non-residential", "date": "12/04/2021", "cases": ["11619"], "address": "Skyline Tower, 39 Wang Kwong Rd, Kowloon Bay, Hong Kong", "lat": 22.3264211, "lng": 114.2055206, "confidence": 9}], "timestamp": {"hours": 1, "minutes": 36, "day": 16, "month": "Apr", "year": 2021}, "totals": {"deaths": {"today": 0, "total": 209}, "cases": {"today": 6, "total": 11618}}}